[
    {
        "id": 1,
        "prefecture_id": 1,
        "name": "北海道",
        "code": "1000",
        "created_at": null,
        "updated_at": "2025-09-21 02:44:47",
        "latitude": "43.06432500",
        "longitude": "141.34687800"
    },
    {
        "id": 2,
        "prefecture_id": 1,
        "name": "札幌市",
        "code": "1100",
        "created_at": null,
        "updated_at": "2025-09-21 02:44:47",
        "latitude": "43.06197200",
        "longitude": "141.35437400"
    },
    {
        "id": 3,
        "prefecture_id": 1,
        "name": "札幌市中央区",
        "code": "1101",
        "created_at": null,
        "updated_at": null,
        "latitude": "43.06145900",
        "longitude": "141.35381700"
    },
    {
        "id": 4,
        "prefecture_id": 1,
        "name": "札幌市北区",
        "code": "1102",
        "created_at": null,
        "updated_at": "2025-09-21 02:44:47",
        "latitude": "43.09069300",
        "longitude": "141.34088200"
    },
    {
        "id": 5,
        "prefecture_id": 1,
        "name": "札幌市東区",
        "code": "1103",
        "created_at": null,
        "updated_at": null,
        "latitude": "43.07624200",
        "longitude": "141.36366200"
    },
    {
        "id": 6,
        "prefecture_id": 1,
        "name": "札幌市白石区",
        "code": "1104",
        "created_at": null,
        "updated_at": null,
        "latitude": "43.04544500",
        "longitude": "141.39637800"
    },
    {
        "id": 7,
        "prefecture_id": 1,
        "name": "札幌市豊平区",
        "code": "1105",
        "created_at": null,
        "updated_at": null,
        "latitude": "43.03137000",
        "longitude": "141.37997400"
    },
    {
        "id": 8,
        "prefecture_id": 1,
        "name": "札幌市南区",
        "code": "1106",
        "created_at": null,
        "updated_at": null,
        "latitude": "42.98999500",
        "longitude": "141.35349600"
    },
    {
        "id": 9,
        "prefecture_id": 1,
        "name": "札幌市西区",
        "code": "1107",
        "created_at": null,
        "updated_at": null,
        "latitude": "43.07434700",
        "longitude": "141.30089800"
    },
    {
        "id": 10,
        "prefecture_id": 1,
        "name": "札幌市厚別区",
        "code": "1108",
        "created_at": null,
        "updated_at": null,
        "latitude": "43.03621300",
        "longitude": "141.47473300"
    },
    {
        "id": 11,
        "prefecture_id": 1,
        "name": "札幌市手稲区",
        "code": "1109",
        "created_at": null,
        "updated_at": null,
        "latitude": "43.12197200",
        "longitude": "141.24578200"
    },
    {
        "id": 12,
        "prefecture_id": 1,
        "name": "札幌市清田区",
        "code": "1110",
        "created_at": null,
        "updated_at": null,
        "latitude": "42.99943200",
        "longitude": "141.44384200"
    },
    {
        "id": 13,
        "prefecture_id": 1,
        "name": "函館市",
        "code": "1202",
        "created_at": null,
        "updated_at": null,
        "latitude": "41.76871200",
        "longitude": "140.72910800"
    },
    {
        "id": 14,
        "prefecture_id": 1,
        "name": "小樽市",
        "code": "1203",
        "created_at": null,
        "updated_at": null,
        "latitude": "43.19075300",
        "longitude": "140.99460500"
    },
    {
        "id": 15,
        "prefecture_id": 1,
        "name": "旭川市",
        "code": "1204",
        "created_at": null,
        "updated_at": null,
        "latitude": "43.77143500",
        "longitude": "142.36529100"
    },
    {
        "id": 16,
        "prefecture_id": 1,
        "name": "室蘭市",
        "code": "1205",
        "created_at": null,
        "updated_at": null,
        "latitude": "42.31520400",
        "longitude": "140.97378400"
    },
    {
        "id": 17,
        "prefecture_id": 1,
        "name": "釧路市",
        "code": "1206",
        "created_at": null,
        "updated_at": null,
        "latitude": "42.98485600",
        "longitude": "144.38167000"
    },
    {
        "id": 18,
        "prefecture_id": 1,
        "name": "帯広市",
        "code": "1207",
        "created_at": null,
        "updated_at": null,
        "latitude": "42.92401400",
        "longitude": "143.19619500"
    },
    {
        "id": 19,
        "prefecture_id": 1,
        "name": "北見市",
        "code": "1208",
        "created_at": null,
        "updated_at": null,
        "latitude": "43.80290600",
        "longitude": "143.89467700"
    },
    {
        "id": 20,
        "prefecture_id": 1,
        "name": "夕張市",
        "code": "1209",
        "created_at": null,
        "updated_at": null,
        "latitude": "43.05681400",
        "longitude": "141.97406900"
    },
    {
        "id": 21,
        "prefecture_id": 1,
        "name": "岩見沢市",
        "code": "1210",
        "created_at": null,
        "updated_at": null,
        "latitude": "43.19602800",
        "longitude": "141.77535500"
    },
    {
        "id": 22,
        "prefecture_id": 1,
        "name": "網走市",
        "code": "1211",
        "created_at": null,
        "updated_at": null,
        "latitude": "44.02063100",
        "longitude": "144.27342200"
    },
    {
        "id": 23,
        "prefecture_id": 1,
        "name": "留萌市",
        "code": "1212",
        "created_at": null,
        "updated_at": null,
        "latitude": "43.94098700",
        "longitude": "141.63700900"
    },
    {
        "id": 24,
        "prefecture_id": 1,
        "name": "苫小牧市",
        "code": "1213",
        "created_at": null,
        "updated_at": null,
        "latitude": "42.63409400",
        "longitude": "141.60550300"
    },
    {
        "id": 25,
        "prefecture_id": 1,
        "name": "稚内市",
        "code": "1214",
        "created_at": null,
        "updated_at": null,
        "latitude": "45.41567500",
        "longitude": "141.67308200"
    },
    {
        "id": 26,
        "prefecture_id": 1,
        "name": "美唄市",
        "code": "1215",
        "created_at": null,
        "updated_at": null,
        "latitude": "43.33295100",
        "longitude": "141.85398600"
    },
    {
        "id": 27,
        "prefecture_id": 1,
        "name": "芦別市",
        "code": "1216",
        "created_at": null,
        "updated_at": null,
        "latitude": "43.51821000",
        "longitude": "142.18955200"
    },
    {
        "id": 28,
        "prefecture_id": 1,
        "name": "江別市",
        "code": "1217",
        "created_at": null,
        "updated_at": null,
        "latitude": "43.10366600",
        "longitude": "141.53610300"
    },
    {
        "id": 29,
        "prefecture_id": 1,
        "name": "赤平市",
        "code": "1218",
        "created_at": null,
        "updated_at": null,
        "latitude": "43.55803900",
        "longitude": "142.04422300"
    },
    {
        "id": 30,
        "prefecture_id": 1,
        "name": "紋別市",
        "code": "1219",
        "created_at": null,
        "updated_at": null,
        "latitude": "44.35633200",
        "longitude": "143.35427900"
    },
    {
        "id": 31,
        "prefecture_id": 1,
        "name": "士別市",
        "code": "1220",
        "created_at": null,
        "updated_at": null,
        "latitude": "44.17818200",
        "longitude": "142.40092700"
    },
    {
        "id": 32,
        "prefecture_id": 1,
        "name": "名寄市",
        "code": "1221",
        "created_at": null,
        "updated_at": null,
        "latitude": "44.35592400",
        "longitude": "142.46313400"
    },
    {
        "id": 33,
        "prefecture_id": 1,
        "name": "三笠市",
        "code": "1222",
        "created_at": null,
        "updated_at": null,
        "latitude": "43.24562200",
        "longitude": "141.87534200"
    },
    {
        "id": 34,
        "prefecture_id": 1,
        "name": "根室市",
        "code": "1223",
        "created_at": null,
        "updated_at": null,
        "latitude": "43.33010500",
        "longitude": "145.58347200"
    },
    {
        "id": 35,
        "prefecture_id": 1,
        "name": "千歳市",
        "code": "1224",
        "created_at": null,
        "updated_at": null,
        "latitude": "42.82112400",
        "longitude": "141.65113900"
    },
    {
        "id": 36,
        "prefecture_id": 1,
        "name": "滝川市",
        "code": "1225",
        "created_at": null,
        "updated_at": null,
        "latitude": "43.55775300",
        "longitude": "141.91037100"
    },
    {
        "id": 37,
        "prefecture_id": 1,
        "name": "砂川市",
        "code": "1226",
        "created_at": null,
        "updated_at": null,
        "latitude": "43.49432900",
        "longitude": "141.90252500"
    },
    {
        "id": 38,
        "prefecture_id": 1,
        "name": "歌志内市",
        "code": "1227",
        "created_at": null,
        "updated_at": null,
        "latitude": "43.52168200",
        "longitude": "142.03535300"
    },
    {
        "id": 39,
        "prefecture_id": 1,
        "name": "深川市",
        "code": "1228",
        "created_at": null,
        "updated_at": null,
        "latitude": "43.72364500",
        "longitude": "142.05379900"
    },
    {
        "id": 40,
        "prefecture_id": 1,
        "name": "富良野市",
        "code": "1229",
        "created_at": null,
        "updated_at": null,
        "latitude": "43.34235400",
        "longitude": "142.38340500"
    },
    {
        "id": 41,
        "prefecture_id": 1,
        "name": "登別市",
        "code": "1230",
        "created_at": null,
        "updated_at": null,
        "latitude": "42.41273500",
        "longitude": "141.10655600"
    },
    {
        "id": 42,
        "prefecture_id": 1,
        "name": "恵庭市",
        "code": "1231",
        "created_at": null,
        "updated_at": null,
        "latitude": "42.88259200",
        "longitude": "141.57779900"
    },
    {
        "id": 43,
        "prefecture_id": 1,
        "name": "伊達市",
        "code": "1233",
        "created_at": null,
        "updated_at": null,
        "latitude": "42.47189800",
        "longitude": "140.86470200"
    },
    {
        "id": 44,
        "prefecture_id": 1,
        "name": "北広島市",
        "code": "1234",
        "created_at": null,
        "updated_at": null,
        "latitude": "42.98566300",
        "longitude": "141.56362500"
    },
    {
        "id": 45,
        "prefecture_id": 1,
        "name": "石狩市",
        "code": "1235",
        "created_at": null,
        "updated_at": null,
        "latitude": "43.17136500",
        "longitude": "141.31551400"
    },
    {
        "id": 46,
        "prefecture_id": 1,
        "name": "北斗市",
        "code": "1236",
        "created_at": null,
        "updated_at": null,
        "latitude": "41.82417400",
        "longitude": "140.65306700"
    },
    {
        "id": 47,
        "prefecture_id": 1,
        "name": "当別町",
        "code": "1303",
        "created_at": null,
        "updated_at": null,
        "latitude": "43.22363700",
        "longitude": "141.51700300"
    },
    {
        "id": 48,
        "prefecture_id": 1,
        "name": "新篠津村",
        "code": "1304",
        "created_at": null,
        "updated_at": null,
        "latitude": "43.22536800",
        "longitude": "141.64924700"
    },
    {
        "id": 49,
        "prefecture_id": 1,
        "name": "松前町",
        "code": "1331",
        "created_at": null,
        "updated_at": null,
        "latitude": "41.42998100",
        "longitude": "140.11040300"
    },
    {
        "id": 50,
        "prefecture_id": 1,
        "name": "福島町",
        "code": "1332",
        "created_at": null,
        "updated_at": null,
        "latitude": "41.48378300",
        "longitude": "140.25131500"
    },
    {
        "id": 51,
        "prefecture_id": 1,
        "name": "知内町",
        "code": "1333",
        "created_at": null,
        "updated_at": null,
        "latitude": "41.59837700",
        "longitude": "140.41886100"
    },
    {
        "id": 52,
        "prefecture_id": 1,
        "name": "木古内町",
        "code": "1334",
        "created_at": null,
        "updated_at": null,
        "latitude": "41.67833200",
        "longitude": "140.43763500"
    },
    {
        "id": 53,
        "prefecture_id": 1,
        "name": "七飯町",
        "code": "1337",
        "created_at": null,
        "updated_at": null,
        "latitude": "41.89571100",
        "longitude": "140.69440500"
    },
    {
        "id": 54,
        "prefecture_id": 1,
        "name": "鹿部町",
        "code": "1343",
        "created_at": null,
        "updated_at": null,
        "latitude": "42.02663900",
        "longitude": "140.83167200"
    },
    {
        "id": 55,
        "prefecture_id": 1,
        "name": "森町",
        "code": "1345",
        "created_at": null,
        "updated_at": null,
        "latitude": "42.10499200",
        "longitude": "140.57644600"
    },
    {
        "id": 56,
        "prefecture_id": 1,
        "name": "八雲町",
        "code": "1346",
        "created_at": null,
        "updated_at": null,
        "latitude": "42.25591800",
        "longitude": "140.26522400"
    },
    {
        "id": 57,
        "prefecture_id": 1,
        "name": "長万部町",
        "code": "1347",
        "created_at": null,
        "updated_at": null,
        "latitude": "42.51348800",
        "longitude": "140.38034400"
    },
    {
        "id": 58,
        "prefecture_id": 1,
        "name": "江差町",
        "code": "1361",
        "created_at": null,
        "updated_at": null,
        "latitude": "41.86924400",
        "longitude": "140.12756000"
    },
    {
        "id": 59,
        "prefecture_id": 1,
        "name": "上ノ国町",
        "code": "1362",
        "created_at": null,
        "updated_at": null,
        "latitude": "41.80104200",
        "longitude": "140.12139800"
    },
    {
        "id": 60,
        "prefecture_id": 1,
        "name": "厚沢部町",
        "code": "1363",
        "created_at": null,
        "updated_at": null,
        "latitude": "41.92089500",
        "longitude": "140.22547500"
    },
    {
        "id": 61,
        "prefecture_id": 1,
        "name": "乙部町",
        "code": "1364",
        "created_at": null,
        "updated_at": null,
        "latitude": "41.96850400",
        "longitude": "140.13546000"
    },
    {
        "id": 62,
        "prefecture_id": 1,
        "name": "奥尻町",
        "code": "1367",
        "created_at": null,
        "updated_at": null,
        "latitude": "42.17226400",
        "longitude": "139.51220800"
    },
    {
        "id": 63,
        "prefecture_id": 1,
        "name": "今金町",
        "code": "1370",
        "created_at": null,
        "updated_at": null,
        "latitude": "42.42937300",
        "longitude": "140.00876600"
    },
    {
        "id": 64,
        "prefecture_id": 1,
        "name": "せたな町",
        "code": "1371",
        "created_at": null,
        "updated_at": null,
        "latitude": "42.41714500",
        "longitude": "139.88299900"
    },
    {
        "id": 65,
        "prefecture_id": 1,
        "name": "島牧村",
        "code": "1391",
        "created_at": null,
        "updated_at": null,
        "latitude": "42.70047100",
        "longitude": "140.06145400"
    },
    {
        "id": 66,
        "prefecture_id": 1,
        "name": "寿都町",
        "code": "1392",
        "created_at": null,
        "updated_at": null,
        "latitude": "42.79098400",
        "longitude": "140.22889100"
    },
    {
        "id": 67,
        "prefecture_id": 1,
        "name": "黒松内町",
        "code": "1393",
        "created_at": null,
        "updated_at": null,
        "latitude": "42.66778800",
        "longitude": "140.30773900"
    },
    {
        "id": 68,
        "prefecture_id": 1,
        "name": "蘭越町",
        "code": "1394",
        "created_at": null,
        "updated_at": null,
        "latitude": "42.80920500",
        "longitude": "140.52834600"
    },
    {
        "id": 69,
        "prefecture_id": 1,
        "name": "ニセコ町",
        "code": "1395",
        "created_at": null,
        "updated_at": null,
        "latitude": "42.80502900",
        "longitude": "140.68799100"
    },
    {
        "id": 70,
        "prefecture_id": 1,
        "name": "真狩村",
        "code": "1396",
        "created_at": null,
        "updated_at": null,
        "latitude": "42.76295500",
        "longitude": "140.80366900"
    },
    {
        "id": 71,
        "prefecture_id": 1,
        "name": "留寿都村",
        "code": "1397",
        "created_at": null,
        "updated_at": null,
        "latitude": "42.73726300",
        "longitude": "140.87557400"
    },
    {
        "id": 72,
        "prefecture_id": 1,
        "name": "喜茂別町",
        "code": "1398",
        "created_at": null,
        "updated_at": null,
        "latitude": "42.79543900",
        "longitude": "140.93453200"
    },
    {
        "id": 73,
        "prefecture_id": 1,
        "name": "京極町",
        "code": "1399",
        "created_at": null,
        "updated_at": null,
        "latitude": "42.85821600",
        "longitude": "140.88399900"
    },
    {
        "id": 74,
        "prefecture_id": 1,
        "name": "倶知安町",
        "code": "1400",
        "created_at": null,
        "updated_at": null,
        "latitude": "42.90145800",
        "longitude": "140.75901200"
    },
    {
        "id": 75,
        "prefecture_id": 1,
        "name": "共和町",
        "code": "1401",
        "created_at": null,
        "updated_at": null,
        "latitude": "42.98040700",
        "longitude": "140.61117500"
    },
    {
        "id": 76,
        "prefecture_id": 1,
        "name": "岩内町",
        "code": "1402",
        "created_at": null,
        "updated_at": null,
        "latitude": "42.97976100",
        "longitude": "140.51477300"
    },
    {
        "id": 77,
        "prefecture_id": 1,
        "name": "泊村",
        "code": "1403",
        "created_at": null,
        "updated_at": null,
        "latitude": "43.06321200",
        "longitude": "140.49885700"
    },
    {
        "id": 78,
        "prefecture_id": 1,
        "name": "神恵内村",
        "code": "1404",
        "created_at": null,
        "updated_at": null,
        "latitude": "43.14336500",
        "longitude": "140.43080100"
    },
    {
        "id": 79,
        "prefecture_id": 1,
        "name": "積丹町",
        "code": "1405",
        "created_at": null,
        "updated_at": null,
        "latitude": "43.29871000",
        "longitude": "140.59800100"
    },
    {
        "id": 80,
        "prefecture_id": 1,
        "name": "古平町",
        "code": "1406",
        "created_at": null,
        "updated_at": null,
        "latitude": "43.26535300",
        "longitude": "140.63907800"
    },
    {
        "id": 81,
        "prefecture_id": 1,
        "name": "仁木町",
        "code": "1407",
        "created_at": null,
        "updated_at": null,
        "latitude": "43.15167500",
        "longitude": "140.76616800"
    },
    {
        "id": 82,
        "prefecture_id": 1,
        "name": "余市町",
        "code": "1408",
        "created_at": null,
        "updated_at": null,
        "latitude": "43.19534300",
        "longitude": "140.78354200"
    },
    {
        "id": 83,
        "prefecture_id": 1,
        "name": "赤井川村",
        "code": "1409",
        "created_at": null,
        "updated_at": null,
        "latitude": "43.08347900",
        "longitude": "140.81364000"
    },
    {
        "id": 84,
        "prefecture_id": 1,
        "name": "南幌町",
        "code": "1423",
        "created_at": null,
        "updated_at": null,
        "latitude": "43.06373900",
        "longitude": "141.65033000"
    },
    {
        "id": 85,
        "prefecture_id": 1,
        "name": "奈井江町",
        "code": "1424",
        "created_at": null,
        "updated_at": null,
        "latitude": "43.42545300",
        "longitude": "141.88353600"
    },
    {
        "id": 86,
        "prefecture_id": 1,
        "name": "上砂川町",
        "code": "1425",
        "created_at": null,
        "updated_at": null,
        "latitude": "43.48271000",
        "longitude": "141.98420200"
    },
    {
        "id": 87,
        "prefecture_id": 1,
        "name": "由仁町",
        "code": "1427",
        "created_at": null,
        "updated_at": null,
        "latitude": "42.99959800",
        "longitude": "141.79030900"
    },
    {
        "id": 88,
        "prefecture_id": 1,
        "name": "長沼町",
        "code": "1428",
        "created_at": null,
        "updated_at": null,
        "latitude": "43.01034000",
        "longitude": "141.69536700"
    },
    {
        "id": 89,
        "prefecture_id": 1,
        "name": "栗山町",
        "code": "1429",
        "created_at": null,
        "updated_at": null,
        "latitude": "43.05629000",
        "longitude": "141.78409900"
    },
    {
        "id": 90,
        "prefecture_id": 1,
        "name": "月形町",
        "code": "1430",
        "created_at": null,
        "updated_at": null,
        "latitude": "43.33839700",
        "longitude": "141.66960400"
    },
    {
        "id": 91,
        "prefecture_id": 1,
        "name": "浦臼町",
        "code": "1431",
        "created_at": null,
        "updated_at": null,
        "latitude": "43.43036300",
        "longitude": "141.81872700"
    },
    {
        "id": 92,
        "prefecture_id": 1,
        "name": "新十津川町",
        "code": "1432",
        "created_at": null,
        "updated_at": null,
        "latitude": "43.54878100",
        "longitude": "141.87712600"
    },
    {
        "id": 93,
        "prefecture_id": 1,
        "name": "妹背牛町",
        "code": "1433",
        "created_at": null,
        "updated_at": null,
        "latitude": "43.70009300",
        "longitude": "141.96160600"
    },
    {
        "id": 94,
        "prefecture_id": 1,
        "name": "秩父別町",
        "code": "1434",
        "created_at": null,
        "updated_at": null,
        "latitude": "43.76700000",
        "longitude": "141.95789600"
    },
    {
        "id": 95,
        "prefecture_id": 1,
        "name": "雨竜町",
        "code": "1436",
        "created_at": null,
        "updated_at": null,
        "latitude": "43.64394300",
        "longitude": "141.88903600"
    },
    {
        "id": 96,
        "prefecture_id": 1,
        "name": "北竜町",
        "code": "1437",
        "created_at": null,
        "updated_at": null,
        "latitude": "43.73142600",
        "longitude": "141.87940900"
    },
    {
        "id": 97,
        "prefecture_id": 1,
        "name": "沼田町",
        "code": "1438",
        "created_at": null,
        "updated_at": null,
        "latitude": "43.80674000",
        "longitude": "141.93381700"
    },
    {
        "id": 98,
        "prefecture_id": 1,
        "name": "鷹栖町",
        "code": "1452",
        "created_at": null,
        "updated_at": null,
        "latitude": "43.84332100",
        "longitude": "142.35438200"
    },
    {
        "id": 99,
        "prefecture_id": 1,
        "name": "東神楽町",
        "code": "1453",
        "created_at": null,
        "updated_at": null,
        "latitude": "43.69638300",
        "longitude": "142.45153900"
    },
    {
        "id": 100,
        "prefecture_id": 1,
        "name": "当麻町",
        "code": "1454",
        "created_at": null,
        "updated_at": null,
        "latitude": "43.82820100",
        "longitude": "142.50838800"
    },
    {
        "id": 101,
        "prefecture_id": 1,
        "name": "比布町",
        "code": "1455",
        "created_at": null,
        "updated_at": null,
        "latitude": "43.87502100",
        "longitude": "142.47769900"
    },
    {
        "id": 102,
        "prefecture_id": 1,
        "name": "愛別町",
        "code": "1456",
        "created_at": null,
        "updated_at": null,
        "latitude": "43.90667900",
        "longitude": "142.57782200"
    },
    {
        "id": 103,
        "prefecture_id": 1,
        "name": "上川町",
        "code": "1457",
        "created_at": null,
        "updated_at": null,
        "latitude": "43.84712800",
        "longitude": "142.77045900"
    },
    {
        "id": 104,
        "prefecture_id": 1,
        "name": "東川町",
        "code": "1458",
        "created_at": null,
        "updated_at": null,
        "latitude": "43.69887700",
        "longitude": "142.51012800"
    },
    {
        "id": 105,
        "prefecture_id": 1,
        "name": "美瑛町",
        "code": "1459",
        "created_at": null,
        "updated_at": null,
        "latitude": "43.58827900",
        "longitude": "142.46705500"
    },
    {
        "id": 106,
        "prefecture_id": 1,
        "name": "上富良野町",
        "code": "1460",
        "created_at": null,
        "updated_at": null,
        "latitude": "43.45561400",
        "longitude": "142.46711200"
    },
    {
        "id": 107,
        "prefecture_id": 1,
        "name": "中富良野町",
        "code": "1461",
        "created_at": null,
        "updated_at": null,
        "latitude": "43.40557600",
        "longitude": "142.42503400"
    },
    {
        "id": 108,
        "prefecture_id": 1,
        "name": "南富良野町",
        "code": "1462",
        "created_at": null,
        "updated_at": null,
        "latitude": "43.16408800",
        "longitude": "142.56852200"
    },
    {
        "id": 109,
        "prefecture_id": 1,
        "name": "占冠村",
        "code": "1463",
        "created_at": null,
        "updated_at": null,
        "latitude": "42.97983600",
        "longitude": "142.39852600"
    },
    {
        "id": 110,
        "prefecture_id": 1,
        "name": "和寒町",
        "code": "1464",
        "created_at": null,
        "updated_at": null,
        "latitude": "44.02311900",
        "longitude": "142.41338300"
    },
    {
        "id": 111,
        "prefecture_id": 1,
        "name": "剣淵町",
        "code": "1465",
        "created_at": null,
        "updated_at": null,
        "latitude": "44.09574600",
        "longitude": "142.36100700"
    },
    {
        "id": 112,
        "prefecture_id": 1,
        "name": "下川町",
        "code": "1468",
        "created_at": null,
        "updated_at": null,
        "latitude": "44.30257600",
        "longitude": "142.63521900"
    },
    {
        "id": 113,
        "prefecture_id": 1,
        "name": "美深町",
        "code": "1469",
        "created_at": null,
        "updated_at": null,
        "latitude": "44.48099400",
        "longitude": "142.34296300"
    },
    {
        "id": 114,
        "prefecture_id": 1,
        "name": "音威子府村",
        "code": "1470",
        "created_at": null,
        "updated_at": null,
        "latitude": "44.72509600",
        "longitude": "142.26245800"
    },
    {
        "id": 115,
        "prefecture_id": 1,
        "name": "中川町",
        "code": "1471",
        "created_at": null,
        "updated_at": null,
        "latitude": "44.81148800",
        "longitude": "142.07140900"
    },
    {
        "id": 116,
        "prefecture_id": 1,
        "name": "幌加内町",
        "code": "1472",
        "created_at": null,
        "updated_at": null,
        "latitude": "44.00981200",
        "longitude": "142.15382800"
    },
    {
        "id": 117,
        "prefecture_id": 1,
        "name": "増毛町",
        "code": "1481",
        "created_at": null,
        "updated_at": null,
        "latitude": "43.85606300",
        "longitude": "141.52497800"
    },
    {
        "id": 118,
        "prefecture_id": 1,
        "name": "小平町",
        "code": "1482",
        "created_at": null,
        "updated_at": null,
        "latitude": "44.01514100",
        "longitude": "141.66282800"
    },
    {
        "id": 119,
        "prefecture_id": 1,
        "name": "苫前町",
        "code": "1483",
        "created_at": null,
        "updated_at": null,
        "latitude": "44.30608600",
        "longitude": "141.65293200"
    },
    {
        "id": 120,
        "prefecture_id": 1,
        "name": "羽幌町",
        "code": "1484",
        "created_at": null,
        "updated_at": null,
        "latitude": "44.36061000",
        "longitude": "141.69724900"
    },
    {
        "id": 121,
        "prefecture_id": 1,
        "name": "初山別村",
        "code": "1485",
        "created_at": null,
        "updated_at": null,
        "latitude": "44.53214900",
        "longitude": "141.76634200"
    },
    {
        "id": 122,
        "prefecture_id": 1,
        "name": "遠別町",
        "code": "1486",
        "created_at": null,
        "updated_at": null,
        "latitude": "44.72246200",
        "longitude": "141.79232200"
    },
    {
        "id": 123,
        "prefecture_id": 1,
        "name": "天塩町",
        "code": "1487",
        "created_at": null,
        "updated_at": null,
        "latitude": "44.88812100",
        "longitude": "141.74532400"
    },
    {
        "id": 124,
        "prefecture_id": 1,
        "name": "猿払村",
        "code": "1511",
        "created_at": null,
        "updated_at": null,
        "latitude": "45.33061000",
        "longitude": "142.10894500"
    },
    {
        "id": 125,
        "prefecture_id": 1,
        "name": "浜頓別町",
        "code": "1512",
        "created_at": null,
        "updated_at": null,
        "latitude": "45.12371600",
        "longitude": "142.35964000"
    },
    {
        "id": 126,
        "prefecture_id": 1,
        "name": "中頓別町",
        "code": "1513",
        "created_at": null,
        "updated_at": null,
        "latitude": "44.96971000",
        "longitude": "142.28670500"
    },
    {
        "id": 127,
        "prefecture_id": 1,
        "name": "枝幸町",
        "code": "1514",
        "created_at": null,
        "updated_at": "2025-09-21 02:44:47",
        "latitude": "44.93870000",
        "longitude": "142.58140500"
    },
    {
        "id": 128,
        "prefecture_id": 1,
        "name": "豊富町",
        "code": "1516",
        "created_at": null,
        "updated_at": null,
        "latitude": "45.10284700",
        "longitude": "141.77750800"
    },
    {
        "id": 129,
        "prefecture_id": 1,
        "name": "礼文町",
        "code": "1517",
        "created_at": null,
        "updated_at": null,
        "latitude": "45.30306200",
        "longitude": "141.04771700"
    },
    {
        "id": 130,
        "prefecture_id": 1,
        "name": "利尻町",
        "code": "1518",
        "created_at": null,
        "updated_at": null,
        "latitude": "45.18704100",
        "longitude": "141.13959700"
    },
    {
        "id": 131,
        "prefecture_id": 1,
        "name": "利尻富士町",
        "code": "1519",
        "created_at": null,
        "updated_at": null,
        "latitude": "45.24745900",
        "longitude": "141.21471900"
    },
    {
        "id": 132,
        "prefecture_id": 1,
        "name": "幌延町",
        "code": "1520",
        "created_at": null,
        "updated_at": null,
        "latitude": "45.01763500",
        "longitude": "141.84938600"
    },
    {
        "id": 133,
        "prefecture_id": 1,
        "name": "美幌町",
        "code": "1543",
        "created_at": null,
        "updated_at": null,
        "latitude": "43.82424800",
        "longitude": "144.10752300"
    },
    {
        "id": 134,
        "prefecture_id": 1,
        "name": "津別町",
        "code": "1544",
        "created_at": null,
        "updated_at": null,
        "latitude": "43.70626100",
        "longitude": "144.02523700"
    },
    {
        "id": 135,
        "prefecture_id": 1,
        "name": "斜里町",
        "code": "1545",
        "created_at": null,
        "updated_at": null,
        "latitude": "43.91144100",
        "longitude": "144.67071300"
    },
    {
        "id": 136,
        "prefecture_id": 1,
        "name": "清里町",
        "code": "1546",
        "created_at": null,
        "updated_at": null,
        "latitude": "43.83522400",
        "longitude": "144.59458200"
    },
    {
        "id": 137,
        "prefecture_id": 1,
        "name": "小清水町",
        "code": "1547",
        "created_at": null,
        "updated_at": null,
        "latitude": "43.85703100",
        "longitude": "144.46252900"
    },
    {
        "id": 138,
        "prefecture_id": 1,
        "name": "訓子府町",
        "code": "1549",
        "created_at": null,
        "updated_at": null,
        "latitude": "43.72532800",
        "longitude": "143.74166500"
    },
    {
        "id": 139,
        "prefecture_id": 1,
        "name": "置戸町",
        "code": "1550",
        "created_at": null,
        "updated_at": null,
        "latitude": "43.67632800",
        "longitude": "143.58640200"
    },
    {
        "id": 140,
        "prefecture_id": 1,
        "name": "佐呂間町",
        "code": "1552",
        "created_at": null,
        "updated_at": null,
        "latitude": "44.01785900",
        "longitude": "143.77471400"
    },
    {
        "id": 141,
        "prefecture_id": 1,
        "name": "遠軽町",
        "code": "1555",
        "created_at": null,
        "updated_at": null,
        "latitude": "44.06194700",
        "longitude": "143.52772600"
    },
    {
        "id": 142,
        "prefecture_id": 1,
        "name": "湧別町",
        "code": "1559",
        "created_at": null,
        "updated_at": null,
        "latitude": "44.15146500",
        "longitude": "143.57291900"
    },
    {
        "id": 143,
        "prefecture_id": 1,
        "name": "滝上町",
        "code": "1560",
        "created_at": null,
        "updated_at": null,
        "latitude": "44.19227000",
        "longitude": "143.07765000"
    },
    {
        "id": 144,
        "prefecture_id": 1,
        "name": "興部町",
        "code": "1561",
        "created_at": null,
        "updated_at": null,
        "latitude": "44.46987400",
        "longitude": "143.12369900"
    },
    {
        "id": 145,
        "prefecture_id": 1,
        "name": "西興部村",
        "code": "1562",
        "created_at": null,
        "updated_at": null,
        "latitude": "44.32883300",
        "longitude": "142.94444500"
    },
    {
        "id": 146,
        "prefecture_id": 1,
        "name": "雄武町",
        "code": "1563",
        "created_at": null,
        "updated_at": null,
        "latitude": "44.58248200",
        "longitude": "142.96186300"
    },
    {
        "id": 147,
        "prefecture_id": 1,
        "name": "大空町",
        "code": "1564",
        "created_at": null,
        "updated_at": null,
        "latitude": "43.91185800",
        "longitude": "144.17247300"
    },
    {
        "id": 148,
        "prefecture_id": 1,
        "name": "豊浦町",
        "code": "1571",
        "created_at": null,
        "updated_at": null,
        "latitude": "42.58346400",
        "longitude": "140.71181500"
    },
    {
        "id": 149,
        "prefecture_id": 1,
        "name": "壮瞥町",
        "code": "1575",
        "created_at": null,
        "updated_at": null,
        "latitude": "42.55255600",
        "longitude": "140.88547200"
    },
    {
        "id": 150,
        "prefecture_id": 1,
        "name": "白老町",
        "code": "1578",
        "created_at": null,
        "updated_at": null,
        "latitude": "42.55125900",
        "longitude": "141.35586100"
    },
    {
        "id": 151,
        "prefecture_id": 1,
        "name": "厚真町",
        "code": "1581",
        "created_at": null,
        "updated_at": null,
        "latitude": "42.72356600",
        "longitude": "141.87784100"
    },
    {
        "id": 152,
        "prefecture_id": 1,
        "name": "洞爺湖町",
        "code": "1584",
        "created_at": null,
        "updated_at": null,
        "latitude": "42.55122300",
        "longitude": "140.76412800"
    },
    {
        "id": 153,
        "prefecture_id": 1,
        "name": "安平町",
        "code": "1585",
        "created_at": null,
        "updated_at": null,
        "latitude": "42.76279800",
        "longitude": "141.81804700"
    },
    {
        "id": 154,
        "prefecture_id": 1,
        "name": "むかわ町",
        "code": "1586",
        "created_at": null,
        "updated_at": null,
        "latitude": "42.57474100",
        "longitude": "141.92676100"
    },
    {
        "id": 155,
        "prefecture_id": 1,
        "name": "日高町",
        "code": "1601",
        "created_at": null,
        "updated_at": null,
        "latitude": "42.48031800",
        "longitude": "142.07435900"
    },
    {
        "id": 156,
        "prefecture_id": 1,
        "name": "平取町",
        "code": "1602",
        "created_at": null,
        "updated_at": null,
        "latitude": "42.58509800",
        "longitude": "142.12852500"
    },
    {
        "id": 157,
        "prefecture_id": 1,
        "name": "新冠町",
        "code": "1604",
        "created_at": null,
        "updated_at": null,
        "latitude": "42.36241700",
        "longitude": "142.31831500"
    },
    {
        "id": 158,
        "prefecture_id": 1,
        "name": "浦河町",
        "code": "1607",
        "created_at": null,
        "updated_at": null,
        "latitude": "42.16835500",
        "longitude": "142.76821300"
    },
    {
        "id": 159,
        "prefecture_id": 1,
        "name": "様似町",
        "code": "1608",
        "created_at": null,
        "updated_at": null,
        "latitude": "42.12773700",
        "longitude": "142.93379700"
    },
    {
        "id": 160,
        "prefecture_id": 1,
        "name": "えりも町",
        "code": "1609",
        "created_at": null,
        "updated_at": null,
        "latitude": "42.01629800",
        "longitude": "143.14834800"
    },
    {
        "id": 161,
        "prefecture_id": 1,
        "name": "新ひだか町",
        "code": "1610",
        "created_at": null,
        "updated_at": null,
        "latitude": "42.34127600",
        "longitude": "142.36858800"
    },
    {
        "id": 162,
        "prefecture_id": 1,
        "name": "音更町",
        "code": "1631",
        "created_at": null,
        "updated_at": null,
        "latitude": "42.99411500",
        "longitude": "143.19786900"
    },
    {
        "id": 163,
        "prefecture_id": 1,
        "name": "士幌町",
        "code": "1632",
        "created_at": null,
        "updated_at": null,
        "latitude": "43.16804700",
        "longitude": "143.24134400"
    },
    {
        "id": 164,
        "prefecture_id": 1,
        "name": "上士幌町",
        "code": "1633",
        "created_at": null,
        "updated_at": null,
        "latitude": "43.23261500",
        "longitude": "143.29624300"
    },
    {
        "id": 165,
        "prefecture_id": 1,
        "name": "鹿追町",
        "code": "1634",
        "created_at": null,
        "updated_at": null,
        "latitude": "43.09887600",
        "longitude": "142.98902800"
    },
    {
        "id": 166,
        "prefecture_id": 1,
        "name": "新得町",
        "code": "1635",
        "created_at": null,
        "updated_at": null,
        "latitude": "43.07974100",
        "longitude": "142.83882200"
    },
    {
        "id": 167,
        "prefecture_id": 1,
        "name": "清水町",
        "code": "1636",
        "created_at": null,
        "updated_at": null,
        "latitude": "43.01142300",
        "longitude": "142.88456800"
    },
    {
        "id": 168,
        "prefecture_id": 1,
        "name": "芽室町",
        "code": "1637",
        "created_at": null,
        "updated_at": null,
        "latitude": "42.91154700",
        "longitude": "143.05083500"
    },
    {
        "id": 169,
        "prefecture_id": 1,
        "name": "中札内村",
        "code": "1638",
        "created_at": null,
        "updated_at": null,
        "latitude": "42.69786400",
        "longitude": "143.13439500"
    },
    {
        "id": 170,
        "prefecture_id": 1,
        "name": "更別村",
        "code": "1639",
        "created_at": null,
        "updated_at": null,
        "latitude": "42.65041500",
        "longitude": "143.18779400"
    },
    {
        "id": 171,
        "prefecture_id": 1,
        "name": "大樹町",
        "code": "1641",
        "created_at": null,
        "updated_at": null,
        "latitude": "42.49769800",
        "longitude": "143.27898900"
    },
    {
        "id": 172,
        "prefecture_id": 1,
        "name": "広尾町",
        "code": "1642",
        "created_at": null,
        "updated_at": null,
        "latitude": "42.28584100",
        "longitude": "143.31149800"
    },
    {
        "id": 173,
        "prefecture_id": 1,
        "name": "幕別町",
        "code": "1643",
        "created_at": null,
        "updated_at": null,
        "latitude": "42.90819800",
        "longitude": "143.35608500"
    },
    {
        "id": 174,
        "prefecture_id": 1,
        "name": "池田町",
        "code": "1644",
        "created_at": null,
        "updated_at": null,
        "latitude": "42.92898000",
        "longitude": "143.44847200"
    },
    {
        "id": 175,
        "prefecture_id": 1,
        "name": "豊頃町",
        "code": "1645",
        "created_at": null,
        "updated_at": null,
        "latitude": "42.80102300",
        "longitude": "143.50590000"
    },
    {
        "id": 176,
        "prefecture_id": 1,
        "name": "本別町",
        "code": "1646",
        "created_at": null,
        "updated_at": null,
        "latitude": "43.12461500",
        "longitude": "143.61096200"
    },
    {
        "id": 177,
        "prefecture_id": 1,
        "name": "足寄町",
        "code": "1647",
        "created_at": null,
        "updated_at": null,
        "latitude": "43.24478600",
        "longitude": "143.55393000"
    },
    {
        "id": 178,
        "prefecture_id": 1,
        "name": "陸別町",
        "code": "1648",
        "created_at": null,
        "updated_at": null,
        "latitude": "43.46891400",
        "longitude": "143.74730500"
    },
    {
        "id": 179,
        "prefecture_id": 1,
        "name": "浦幌町",
        "code": "1649",
        "created_at": null,
        "updated_at": null,
        "latitude": "42.80894700",
        "longitude": "143.65858100"
    },
    {
        "id": 180,
        "prefecture_id": 1,
        "name": "釧路町",
        "code": "1661",
        "created_at": null,
        "updated_at": null,
        "latitude": "42.99612400",
        "longitude": "144.46608100"
    },
    {
        "id": 181,
        "prefecture_id": 1,
        "name": "厚岸町",
        "code": "1662",
        "created_at": null,
        "updated_at": null,
        "latitude": "43.05195100",
        "longitude": "144.84744300"
    },
    {
        "id": 182,
        "prefecture_id": 1,
        "name": "浜中町",
        "code": "1663",
        "created_at": null,
        "updated_at": null,
        "latitude": "43.07594800",
        "longitude": "145.13112700"
    },
    {
        "id": 183,
        "prefecture_id": 1,
        "name": "標茶町",
        "code": "1664",
        "created_at": null,
        "updated_at": null,
        "latitude": "43.30333700",
        "longitude": "144.60066500"
    },
    {
        "id": 184,
        "prefecture_id": 1,
        "name": "弟子屈町",
        "code": "1665",
        "created_at": null,
        "updated_at": null,
        "latitude": "43.48535200",
        "longitude": "144.45922300"
    },
    {
        "id": 185,
        "prefecture_id": 1,
        "name": "鶴居村",
        "code": "1667",
        "created_at": null,
        "updated_at": null,
        "latitude": "43.23016000",
        "longitude": "144.32116500"
    },
    {
        "id": 186,
        "prefecture_id": 1,
        "name": "白糠町",
        "code": "1668",
        "created_at": null,
        "updated_at": null,
        "latitude": "42.95616100",
        "longitude": "144.07180500"
    },
    {
        "id": 187,
        "prefecture_id": 1,
        "name": "別海町",
        "code": "1691",
        "created_at": null,
        "updated_at": null,
        "latitude": "43.39399000",
        "longitude": "145.11734100"
    },
    {
        "id": 188,
        "prefecture_id": 1,
        "name": "中標津町",
        "code": "1692",
        "created_at": null,
        "updated_at": null,
        "latitude": "43.55519100",
        "longitude": "144.97150400"
    },
    {
        "id": 189,
        "prefecture_id": 1,
        "name": "標津町",
        "code": "1693",
        "created_at": null,
        "updated_at": null,
        "latitude": "43.66130900",
        "longitude": "145.13132500"
    },
    {
        "id": 190,
        "prefecture_id": 1,
        "name": "羅臼町",
        "code": "1694",
        "created_at": null,
        "updated_at": null,
        "latitude": "44.02195300",
        "longitude": "145.18953200"
    },
    {
        "id": 191,
        "prefecture_id": 2,
        "name": "青森県",
        "code": "2000",
        "created_at": null,
        "updated_at": null,
        "latitude": "40.82444000",
        "longitude": "140.74000500"
    },
    {
        "id": 192,
        "prefecture_id": 2,
        "name": "青森市",
        "code": "2201",
        "created_at": null,
        "updated_at": null,
        "latitude": "40.82264000",
        "longitude": "140.74695700"
    },
    {
        "id": 193,
        "prefecture_id": 2,
        "name": "弘前市",
        "code": "2202",
        "created_at": null,
        "updated_at": null,
        "latitude": "40.60296500",
        "longitude": "140.46400800"
    },
    {
        "id": 194,
        "prefecture_id": 2,
        "name": "八戸市",
        "code": "2203",
        "created_at": null,
        "updated_at": null,
        "latitude": "40.51227800",
        "longitude": "141.48840400"
    },
    {
        "id": 195,
        "prefecture_id": 2,
        "name": "黒石市",
        "code": "2204",
        "created_at": null,
        "updated_at": null,
        "latitude": "40.64260800",
        "longitude": "140.59454700"
    },
    {
        "id": 196,
        "prefecture_id": 2,
        "name": "五所川原市",
        "code": "2205",
        "created_at": null,
        "updated_at": null,
        "latitude": "40.80783500",
        "longitude": "140.44611800"
    },
    {
        "id": 197,
        "prefecture_id": 2,
        "name": "十和田市",
        "code": "2206",
        "created_at": null,
        "updated_at": null,
        "latitude": "40.61270300",
        "longitude": "141.20591000"
    },
    {
        "id": 198,
        "prefecture_id": 2,
        "name": "三沢市",
        "code": "2207",
        "created_at": null,
        "updated_at": null,
        "latitude": "40.68307800",
        "longitude": "141.36909300"
    },
    {
        "id": 199,
        "prefecture_id": 2,
        "name": "むつ市",
        "code": "2208",
        "created_at": null,
        "updated_at": null,
        "latitude": "41.29283500",
        "longitude": "141.18317400"
    },
    {
        "id": 200,
        "prefecture_id": 2,
        "name": "つがる市",
        "code": "2209",
        "created_at": null,
        "updated_at": null,
        "latitude": "40.80883600",
        "longitude": "140.38019500"
    },
    {
        "id": 201,
        "prefecture_id": 2,
        "name": "平川市",
        "code": "2210",
        "created_at": null,
        "updated_at": null,
        "latitude": "40.58374200",
        "longitude": "140.56712300"
    },
    {
        "id": 202,
        "prefecture_id": 2,
        "name": "平内町",
        "code": "2301",
        "created_at": null,
        "updated_at": null,
        "latitude": "40.92602300",
        "longitude": "140.95588400"
    },
    {
        "id": 203,
        "prefecture_id": 2,
        "name": "今別町",
        "code": "2303",
        "created_at": null,
        "updated_at": null,
        "latitude": "41.18187500",
        "longitude": "140.48161000"
    },
    {
        "id": 204,
        "prefecture_id": 2,
        "name": "蓬田村",
        "code": "2304",
        "created_at": null,
        "updated_at": null,
        "latitude": "40.97177900",
        "longitude": "140.65605300"
    },
    {
        "id": 205,
        "prefecture_id": 2,
        "name": "外ヶ浜町",
        "code": "2307",
        "created_at": null,
        "updated_at": null,
        "latitude": "41.04315900",
        "longitude": "140.63224300"
    },
    {
        "id": 206,
        "prefecture_id": 2,
        "name": "鰺ヶ沢町",
        "code": "2321",
        "created_at": null,
        "updated_at": null,
        "latitude": "40.78301100",
        "longitude": "140.23391200"
    },
    {
        "id": 207,
        "prefecture_id": 2,
        "name": "深浦町",
        "code": "2323",
        "created_at": null,
        "updated_at": null,
        "latitude": "40.64787600",
        "longitude": "139.92743100"
    },
    {
        "id": 208,
        "prefecture_id": 2,
        "name": "西目屋村",
        "code": "2343",
        "created_at": null,
        "updated_at": null,
        "latitude": "40.57748600",
        "longitude": "140.29731600"
    },
    {
        "id": 209,
        "prefecture_id": 2,
        "name": "藤崎町",
        "code": "2361",
        "created_at": null,
        "updated_at": null,
        "latitude": "40.65606400",
        "longitude": "140.50282400"
    },
    {
        "id": 210,
        "prefecture_id": 2,
        "name": "大鰐町",
        "code": "2362",
        "created_at": null,
        "updated_at": null,
        "latitude": "40.51835600",
        "longitude": "140.56787800"
    },
    {
        "id": 211,
        "prefecture_id": 2,
        "name": "田舎館村",
        "code": "2367",
        "created_at": null,
        "updated_at": null,
        "latitude": "40.63125900",
        "longitude": "140.55019800"
    },
    {
        "id": 212,
        "prefecture_id": 2,
        "name": "板柳町",
        "code": "2381",
        "created_at": null,
        "updated_at": null,
        "latitude": "40.69595400",
        "longitude": "140.45770000"
    },
    {
        "id": 213,
        "prefecture_id": 2,
        "name": "鶴田町",
        "code": "2384",
        "created_at": null,
        "updated_at": null,
        "latitude": "40.75881900",
        "longitude": "140.42870200"
    },
    {
        "id": 214,
        "prefecture_id": 2,
        "name": "中泊町",
        "code": "2387",
        "created_at": null,
        "updated_at": null,
        "latitude": "40.96042700",
        "longitude": "140.43412200"
    },
    {
        "id": 215,
        "prefecture_id": 2,
        "name": "野辺地町",
        "code": "2401",
        "created_at": null,
        "updated_at": null,
        "latitude": "40.86439200",
        "longitude": "141.12793600"
    },
    {
        "id": 216,
        "prefecture_id": 2,
        "name": "七戸町",
        "code": "2402",
        "created_at": null,
        "updated_at": null,
        "latitude": "40.74471400",
        "longitude": "141.15799100"
    },
    {
        "id": 217,
        "prefecture_id": 2,
        "name": "六戸町",
        "code": "2405",
        "created_at": null,
        "updated_at": null,
        "latitude": "40.60952600",
        "longitude": "141.32495800"
    },
    {
        "id": 218,
        "prefecture_id": 2,
        "name": "横浜町",
        "code": "2406",
        "created_at": null,
        "updated_at": null,
        "latitude": "41.08315500",
        "longitude": "141.24778200"
    },
    {
        "id": 219,
        "prefecture_id": 2,
        "name": "東北町",
        "code": "2408",
        "created_at": null,
        "updated_at": null,
        "latitude": "40.72787100",
        "longitude": "141.25788800"
    },
    {
        "id": 220,
        "prefecture_id": 2,
        "name": "六ヶ所村",
        "code": "2411",
        "created_at": null,
        "updated_at": null,
        "latitude": "40.96737500",
        "longitude": "141.37443400"
    },
    {
        "id": 221,
        "prefecture_id": 2,
        "name": "おいらせ町",
        "code": "2412",
        "created_at": null,
        "updated_at": null,
        "latitude": "40.59910400",
        "longitude": "141.39782200"
    },
    {
        "id": 222,
        "prefecture_id": 2,
        "name": "大間町",
        "code": "2423",
        "created_at": null,
        "updated_at": null,
        "latitude": "41.52238800",
        "longitude": "140.90483000"
    },
    {
        "id": 223,
        "prefecture_id": 2,
        "name": "東通村",
        "code": "2424",
        "created_at": null,
        "updated_at": null,
        "latitude": "41.27772600",
        "longitude": "141.32890000"
    },
    {
        "id": 224,
        "prefecture_id": 2,
        "name": "風間浦村",
        "code": "2425",
        "created_at": null,
        "updated_at": null,
        "latitude": "41.48748700",
        "longitude": "140.99553400"
    },
    {
        "id": 225,
        "prefecture_id": 2,
        "name": "佐井村",
        "code": "2426",
        "created_at": null,
        "updated_at": null,
        "latitude": "41.42971800",
        "longitude": "140.85917500"
    },
    {
        "id": 226,
        "prefecture_id": 2,
        "name": "三戸町",
        "code": "2441",
        "created_at": null,
        "updated_at": null,
        "latitude": "40.37842300",
        "longitude": "141.25874000"
    },
    {
        "id": 227,
        "prefecture_id": 2,
        "name": "五戸町",
        "code": "2442",
        "created_at": null,
        "updated_at": null,
        "latitude": "40.53120800",
        "longitude": "141.30781300"
    },
    {
        "id": 228,
        "prefecture_id": 2,
        "name": "田子町",
        "code": "2443",
        "created_at": null,
        "updated_at": null,
        "latitude": "40.34003000",
        "longitude": "141.15215000"
    },
    {
        "id": 229,
        "prefecture_id": 2,
        "name": "南部町",
        "code": "2445",
        "created_at": null,
        "updated_at": null,
        "latitude": "40.42034300",
        "longitude": "141.33030700"
    },
    {
        "id": 230,
        "prefecture_id": 2,
        "name": "階上町",
        "code": "2446",
        "created_at": null,
        "updated_at": null,
        "latitude": "40.45245400",
        "longitude": "141.62100100"
    },
    {
        "id": 231,
        "prefecture_id": 2,
        "name": "新郷村",
        "code": "2450",
        "created_at": null,
        "updated_at": null,
        "latitude": "40.46578400",
        "longitude": "141.17340000"
    },
    {
        "id": 232,
        "prefecture_id": 3,
        "name": "岩手県",
        "code": "3000",
        "created_at": null,
        "updated_at": null,
        "latitude": "39.70357000",
        "longitude": "141.15265200"
    },
    {
        "id": 233,
        "prefecture_id": 3,
        "name": "盛岡市",
        "code": "3201",
        "created_at": null,
        "updated_at": null,
        "latitude": "39.70179500",
        "longitude": "141.15418300"
    },
    {
        "id": 234,
        "prefecture_id": 3,
        "name": "宮古市",
        "code": "3202",
        "created_at": null,
        "updated_at": null,
        "latitude": "39.63955400",
        "longitude": "141.94611500"
    },
    {
        "id": 235,
        "prefecture_id": 3,
        "name": "大船渡市",
        "code": "3203",
        "created_at": null,
        "updated_at": null,
        "latitude": "39.08190100",
        "longitude": "141.70854700"
    },
    {
        "id": 236,
        "prefecture_id": 3,
        "name": "花巻市",
        "code": "3205",
        "created_at": null,
        "updated_at": null,
        "latitude": "39.38860900",
        "longitude": "141.11685400"
    },
    {
        "id": 237,
        "prefecture_id": 3,
        "name": "北上市",
        "code": "3206",
        "created_at": null,
        "updated_at": null,
        "latitude": "39.28681700",
        "longitude": "141.11315700"
    },
    {
        "id": 238,
        "prefecture_id": 3,
        "name": "久慈市",
        "code": "3207",
        "created_at": null,
        "updated_at": null,
        "latitude": "40.19046600",
        "longitude": "141.77564400"
    },
    {
        "id": 239,
        "prefecture_id": 3,
        "name": "遠野市",
        "code": "3208",
        "created_at": null,
        "updated_at": null,
        "latitude": "39.33101400",
        "longitude": "141.53235200"
    },
    {
        "id": 240,
        "prefecture_id": 3,
        "name": "一関市",
        "code": "3209",
        "created_at": null,
        "updated_at": null,
        "latitude": "38.93475400",
        "longitude": "141.12675900"
    },
    {
        "id": 241,
        "prefecture_id": 3,
        "name": "陸前高田市",
        "code": "3210",
        "created_at": null,
        "updated_at": null,
        "latitude": "39.02041300",
        "longitude": "141.63332100"
    },
    {
        "id": 242,
        "prefecture_id": 3,
        "name": "釜石市",
        "code": "3211",
        "created_at": null,
        "updated_at": null,
        "latitude": "39.27581000",
        "longitude": "141.88571600"
    },
    {
        "id": 243,
        "prefecture_id": 3,
        "name": "二戸市",
        "code": "3213",
        "created_at": null,
        "updated_at": null,
        "latitude": "40.27119300",
        "longitude": "141.30480500"
    },
    {
        "id": 244,
        "prefecture_id": 3,
        "name": "八幡平市",
        "code": "3214",
        "created_at": null,
        "updated_at": null,
        "latitude": "39.95651100",
        "longitude": "141.07112000"
    },
    {
        "id": 245,
        "prefecture_id": 3,
        "name": "奥州市",
        "code": "3215",
        "created_at": null,
        "updated_at": null,
        "latitude": "39.14450600",
        "longitude": "141.13911600"
    },
    {
        "id": 246,
        "prefecture_id": 3,
        "name": "滝沢市",
        "code": "3216",
        "created_at": null,
        "updated_at": null,
        "latitude": "39.73473900",
        "longitude": "141.07706500"
    },
    {
        "id": 247,
        "prefecture_id": 3,
        "name": "雫石町",
        "code": "3301",
        "created_at": null,
        "updated_at": null,
        "latitude": "39.69631900",
        "longitude": "140.97577900"
    },
    {
        "id": 248,
        "prefecture_id": 3,
        "name": "葛巻町",
        "code": "3302",
        "created_at": null,
        "updated_at": null,
        "latitude": "40.03995800",
        "longitude": "141.43788900"
    },
    {
        "id": 249,
        "prefecture_id": 3,
        "name": "岩手町",
        "code": "3303",
        "created_at": null,
        "updated_at": null,
        "latitude": "39.97276800",
        "longitude": "141.21216600"
    },
    {
        "id": 250,
        "prefecture_id": 3,
        "name": "紫波町",
        "code": "3321",
        "created_at": null,
        "updated_at": null,
        "latitude": "39.55453600",
        "longitude": "141.15579600"
    },
    {
        "id": 251,
        "prefecture_id": 3,
        "name": "矢巾町",
        "code": "3322",
        "created_at": null,
        "updated_at": null,
        "latitude": "39.60600600",
        "longitude": "141.14300100"
    },
    {
        "id": 252,
        "prefecture_id": 3,
        "name": "西和賀町",
        "code": "3366",
        "created_at": null,
        "updated_at": null,
        "latitude": "39.31790600",
        "longitude": "140.77875400"
    },
    {
        "id": 253,
        "prefecture_id": 3,
        "name": "金ケ崎町",
        "code": "3381",
        "created_at": null,
        "updated_at": null,
        "latitude": "39.19568700",
        "longitude": "141.11640800"
    },
    {
        "id": 254,
        "prefecture_id": 3,
        "name": "平泉町",
        "code": "3402",
        "created_at": null,
        "updated_at": null,
        "latitude": "38.98678100",
        "longitude": "141.11398000"
    },
    {
        "id": 255,
        "prefecture_id": 3,
        "name": "住田町",
        "code": "3441",
        "created_at": null,
        "updated_at": null,
        "latitude": "39.14220900",
        "longitude": "141.57505200"
    },
    {
        "id": 256,
        "prefecture_id": 3,
        "name": "大槌町",
        "code": "3461",
        "created_at": null,
        "updated_at": null,
        "latitude": "39.35819600",
        "longitude": "141.89973100"
    },
    {
        "id": 257,
        "prefecture_id": 3,
        "name": "山田町",
        "code": "3482",
        "created_at": null,
        "updated_at": null,
        "latitude": "39.46761900",
        "longitude": "141.94892300"
    },
    {
        "id": 258,
        "prefecture_id": 3,
        "name": "岩泉町",
        "code": "3483",
        "created_at": null,
        "updated_at": null,
        "latitude": "39.84320400",
        "longitude": "141.79667500"
    },
    {
        "id": 259,
        "prefecture_id": 3,
        "name": "田野畑村",
        "code": "3484",
        "created_at": null,
        "updated_at": null,
        "latitude": "39.93045400",
        "longitude": "141.88886400"
    },
    {
        "id": 260,
        "prefecture_id": 3,
        "name": "普代村",
        "code": "3485",
        "created_at": null,
        "updated_at": null,
        "latitude": "40.00516400",
        "longitude": "141.88601400"
    },
    {
        "id": 261,
        "prefecture_id": 3,
        "name": "軽米町",
        "code": "3501",
        "created_at": null,
        "updated_at": null,
        "latitude": "40.32667800",
        "longitude": "141.46034900"
    },
    {
        "id": 262,
        "prefecture_id": 3,
        "name": "野田村",
        "code": "3503",
        "created_at": null,
        "updated_at": null,
        "latitude": "40.11027200",
        "longitude": "141.81767400"
    },
    {
        "id": 263,
        "prefecture_id": 3,
        "name": "九戸村",
        "code": "3506",
        "created_at": null,
        "updated_at": null,
        "latitude": "40.21135600",
        "longitude": "141.41898200"
    },
    {
        "id": 264,
        "prefecture_id": 3,
        "name": "洋野町",
        "code": "3507",
        "created_at": null,
        "updated_at": null,
        "latitude": "40.40829800",
        "longitude": "141.71865000"
    },
    {
        "id": 265,
        "prefecture_id": 3,
        "name": "一戸町",
        "code": "3524",
        "created_at": null,
        "updated_at": null,
        "latitude": "40.21273300",
        "longitude": "141.29546000"
    },
    {
        "id": 266,
        "prefecture_id": 4,
        "name": "宮城県",
        "code": "4000",
        "created_at": null,
        "updated_at": null,
        "latitude": "38.26893000",
        "longitude": "140.87214700"
    },
    {
        "id": 267,
        "prefecture_id": 4,
        "name": "仙台市",
        "code": "4100",
        "created_at": null,
        "updated_at": null,
        "latitude": "38.26800800",
        "longitude": "140.86961700"
    },
    {
        "id": 268,
        "prefecture_id": 4,
        "name": "仙台市青葉区",
        "code": "4101",
        "created_at": null,
        "updated_at": null,
        "latitude": "38.26908700",
        "longitude": "140.87037800"
    },
    {
        "id": 269,
        "prefecture_id": 4,
        "name": "仙台市宮城野区",
        "code": "4102",
        "created_at": null,
        "updated_at": null,
        "latitude": "38.26618900",
        "longitude": "140.90984100"
    },
    {
        "id": 270,
        "prefecture_id": 4,
        "name": "仙台市若林区",
        "code": "4103",
        "created_at": null,
        "updated_at": null,
        "latitude": "38.24418000",
        "longitude": "140.90074800"
    },
    {
        "id": 271,
        "prefecture_id": 4,
        "name": "仙台市太白区",
        "code": "4104",
        "created_at": null,
        "updated_at": null,
        "latitude": "38.22439500",
        "longitude": "140.87721200"
    },
    {
        "id": 272,
        "prefecture_id": 4,
        "name": "仙台市泉区",
        "code": "4105",
        "created_at": null,
        "updated_at": null,
        "latitude": "38.32636100",
        "longitude": "140.88161500"
    },
    {
        "id": 273,
        "prefecture_id": 4,
        "name": "石巻市",
        "code": "4202",
        "created_at": null,
        "updated_at": null,
        "latitude": "38.43445700",
        "longitude": "141.30290600"
    },
    {
        "id": 274,
        "prefecture_id": 4,
        "name": "塩竈市",
        "code": "4203",
        "created_at": null,
        "updated_at": null,
        "latitude": "38.31436000",
        "longitude": "141.02203000"
    },
    {
        "id": 275,
        "prefecture_id": 4,
        "name": "気仙沼市",
        "code": "4205",
        "created_at": null,
        "updated_at": null,
        "latitude": "38.90812700",
        "longitude": "141.57004400"
    },
    {
        "id": 276,
        "prefecture_id": 4,
        "name": "白石市",
        "code": "4206",
        "created_at": null,
        "updated_at": null,
        "latitude": "38.00246700",
        "longitude": "140.61988800"
    },
    {
        "id": 277,
        "prefecture_id": 4,
        "name": "名取市",
        "code": "4207",
        "created_at": null,
        "updated_at": null,
        "latitude": "38.17150100",
        "longitude": "140.89184900"
    },
    {
        "id": 278,
        "prefecture_id": 4,
        "name": "角田市",
        "code": "4208",
        "created_at": null,
        "updated_at": null,
        "latitude": "37.97701600",
        "longitude": "140.78154300"
    },
    {
        "id": 279,
        "prefecture_id": 4,
        "name": "多賀城市",
        "code": "4209",
        "created_at": null,
        "updated_at": null,
        "latitude": "38.29380300",
        "longitude": "141.00436900"
    },
    {
        "id": 280,
        "prefecture_id": 4,
        "name": "岩沼市",
        "code": "4211",
        "created_at": null,
        "updated_at": null,
        "latitude": "38.10430300",
        "longitude": "140.86994900"
    },
    {
        "id": 281,
        "prefecture_id": 4,
        "name": "登米市",
        "code": "4212",
        "created_at": null,
        "updated_at": null,
        "latitude": "38.69185600",
        "longitude": "141.18772000"
    },
    {
        "id": 282,
        "prefecture_id": 4,
        "name": "栗原市",
        "code": "4213",
        "created_at": null,
        "updated_at": null,
        "latitude": "38.73006200",
        "longitude": "141.02150800"
    },
    {
        "id": 283,
        "prefecture_id": 4,
        "name": "東松島市",
        "code": "4214",
        "created_at": null,
        "updated_at": null,
        "latitude": "38.42613400",
        "longitude": "141.21027800"
    },
    {
        "id": 284,
        "prefecture_id": 4,
        "name": "大崎市",
        "code": "4215",
        "created_at": null,
        "updated_at": null,
        "latitude": "38.57754000",
        "longitude": "140.95572500"
    },
    {
        "id": 285,
        "prefecture_id": 4,
        "name": "富谷市",
        "code": "4216",
        "created_at": null,
        "updated_at": null,
        "latitude": "38.39991800",
        "longitude": "140.89548500"
    },
    {
        "id": 286,
        "prefecture_id": 4,
        "name": "蔵王町",
        "code": "4301",
        "created_at": null,
        "updated_at": null,
        "latitude": "38.09812800",
        "longitude": "140.65868000"
    },
    {
        "id": 287,
        "prefecture_id": 4,
        "name": "七ケ宿町",
        "code": "4302",
        "created_at": null,
        "updated_at": null,
        "latitude": "37.99306300",
        "longitude": "140.44161500"
    },
    {
        "id": 288,
        "prefecture_id": 4,
        "name": "大河原町",
        "code": "4321",
        "created_at": null,
        "updated_at": null,
        "latitude": "38.04941200",
        "longitude": "140.73077400"
    },
    {
        "id": 289,
        "prefecture_id": 4,
        "name": "村田町",
        "code": "4322",
        "created_at": null,
        "updated_at": null,
        "latitude": "38.11858900",
        "longitude": "140.72240400"
    },
    {
        "id": 290,
        "prefecture_id": 4,
        "name": "柴田町",
        "code": "4323",
        "created_at": null,
        "updated_at": null,
        "latitude": "38.05659900",
        "longitude": "140.76579800"
    },
    {
        "id": 291,
        "prefecture_id": 4,
        "name": "川崎町",
        "code": "4324",
        "created_at": null,
        "updated_at": null,
        "latitude": "38.17775100",
        "longitude": "140.64318800"
    },
    {
        "id": 292,
        "prefecture_id": 4,
        "name": "丸森町",
        "code": "4341",
        "created_at": null,
        "updated_at": null,
        "latitude": "37.91153600",
        "longitude": "140.76536500"
    },
    {
        "id": 293,
        "prefecture_id": 4,
        "name": "亘理町",
        "code": "4361",
        "created_at": null,
        "updated_at": null,
        "latitude": "38.04426300",
        "longitude": "140.86792400"
    },
    {
        "id": 294,
        "prefecture_id": 4,
        "name": "山元町",
        "code": "4362",
        "created_at": null,
        "updated_at": null,
        "latitude": "37.96270300",
        "longitude": "140.87809000"
    },
    {
        "id": 295,
        "prefecture_id": 4,
        "name": "松島町",
        "code": "4401",
        "created_at": null,
        "updated_at": null,
        "latitude": "38.38014900",
        "longitude": "141.06729100"
    },
    {
        "id": 296,
        "prefecture_id": 4,
        "name": "七ヶ浜町",
        "code": "4404",
        "created_at": null,
        "updated_at": null,
        "latitude": "38.30455400",
        "longitude": "141.05914300"
    },
    {
        "id": 297,
        "prefecture_id": 4,
        "name": "利府町",
        "code": "4406",
        "created_at": null,
        "updated_at": null,
        "latitude": "38.33035500",
        "longitude": "140.97579300"
    },
    {
        "id": 298,
        "prefecture_id": 4,
        "name": "大和町",
        "code": "4421",
        "created_at": null,
        "updated_at": null,
        "latitude": "38.43733000",
        "longitude": "140.88630900"
    },
    {
        "id": 299,
        "prefecture_id": 4,
        "name": "大郷町",
        "code": "4422",
        "created_at": null,
        "updated_at": null,
        "latitude": "38.42424400",
        "longitude": "141.00446000"
    },
    {
        "id": 300,
        "prefecture_id": 4,
        "name": "大衡村",
        "code": "4424",
        "created_at": null,
        "updated_at": null,
        "latitude": "38.46727800",
        "longitude": "140.87998200"
    },
    {
        "id": 301,
        "prefecture_id": 4,
        "name": "色麻町",
        "code": "4444",
        "created_at": null,
        "updated_at": null,
        "latitude": "38.54892100",
        "longitude": "140.84987600"
    },
    {
        "id": 302,
        "prefecture_id": 4,
        "name": "加美町",
        "code": "4445",
        "created_at": null,
        "updated_at": null,
        "latitude": "38.57177000",
        "longitude": "140.85475900"
    },
    {
        "id": 303,
        "prefecture_id": 4,
        "name": "涌谷町",
        "code": "4501",
        "created_at": null,
        "updated_at": null,
        "latitude": "38.53970400",
        "longitude": "141.12810500"
    },
    {
        "id": 304,
        "prefecture_id": 4,
        "name": "美里町",
        "code": "4505",
        "created_at": null,
        "updated_at": null,
        "latitude": "38.54440000",
        "longitude": "141.05671700"
    },
    {
        "id": 305,
        "prefecture_id": 4,
        "name": "女川町",
        "code": "4581",
        "created_at": null,
        "updated_at": null,
        "latitude": "38.44538800",
        "longitude": "141.44269300"
    },
    {
        "id": 306,
        "prefecture_id": 4,
        "name": "南三陸町",
        "code": "4606",
        "created_at": null,
        "updated_at": null,
        "latitude": "38.68066600",
        "longitude": "141.46249200"
    },
    {
        "id": 307,
        "prefecture_id": 5,
        "name": "秋田県",
        "code": "5000",
        "created_at": null,
        "updated_at": null,
        "latitude": "39.71862600",
        "longitude": "140.10238100"
    },
    {
        "id": 308,
        "prefecture_id": 5,
        "name": "秋田市",
        "code": "5201",
        "created_at": null,
        "updated_at": null,
        "latitude": "39.71992900",
        "longitude": "140.10251200"
    },
    {
        "id": 309,
        "prefecture_id": 5,
        "name": "能代市",
        "code": "5202",
        "created_at": null,
        "updated_at": null,
        "latitude": "40.21213100",
        "longitude": "140.02664100"
    },
    {
        "id": 310,
        "prefecture_id": 5,
        "name": "横手市",
        "code": "5203",
        "created_at": null,
        "updated_at": null,
        "latitude": "39.31377700",
        "longitude": "140.56663600"
    },
    {
        "id": 311,
        "prefecture_id": 5,
        "name": "大館市",
        "code": "5204",
        "created_at": null,
        "updated_at": null,
        "latitude": "40.27168500",
        "longitude": "140.56524100"
    },
    {
        "id": 312,
        "prefecture_id": 5,
        "name": "男鹿市",
        "code": "5206",
        "created_at": null,
        "updated_at": null,
        "latitude": "39.88672100",
        "longitude": "139.84750000"
    },
    {
        "id": 313,
        "prefecture_id": 5,
        "name": "湯沢市",
        "code": "5207",
        "created_at": null,
        "updated_at": null,
        "latitude": "39.16407400",
        "longitude": "140.49468300"
    },
    {
        "id": 314,
        "prefecture_id": 5,
        "name": "鹿角市",
        "code": "5209",
        "created_at": null,
        "updated_at": null,
        "latitude": "40.21578900",
        "longitude": "140.78851900"
    },
    {
        "id": 315,
        "prefecture_id": 5,
        "name": "由利本荘市",
        "code": "5210",
        "created_at": null,
        "updated_at": null,
        "latitude": "39.38581400",
        "longitude": "140.04881900"
    },
    {
        "id": 316,
        "prefecture_id": 5,
        "name": "潟上市",
        "code": "5211",
        "created_at": null,
        "updated_at": null,
        "latitude": "39.85728800",
        "longitude": "140.01304900"
    },
    {
        "id": 317,
        "prefecture_id": 5,
        "name": "大仙市",
        "code": "5212",
        "created_at": null,
        "updated_at": null,
        "latitude": "39.45309000",
        "longitude": "140.47544800"
    },
    {
        "id": 318,
        "prefecture_id": 5,
        "name": "北秋田市",
        "code": "5213",
        "created_at": null,
        "updated_at": null,
        "latitude": "40.22604600",
        "longitude": "140.37072800"
    },
    {
        "id": 319,
        "prefecture_id": 5,
        "name": "にかほ市",
        "code": "5214",
        "created_at": null,
        "updated_at": null,
        "latitude": "39.20306700",
        "longitude": "139.90764900"
    },
    {
        "id": 320,
        "prefecture_id": 5,
        "name": "仙北市",
        "code": "5215",
        "created_at": null,
        "updated_at": null,
        "latitude": "39.70004400",
        "longitude": "140.73072800"
    },
    {
        "id": 321,
        "prefecture_id": 5,
        "name": "小坂町",
        "code": "5303",
        "created_at": null,
        "updated_at": null,
        "latitude": "40.33292600",
        "longitude": "140.73619100"
    },
    {
        "id": 322,
        "prefecture_id": 5,
        "name": "上小阿仁村",
        "code": "5327",
        "created_at": null,
        "updated_at": null,
        "latitude": "40.06326300",
        "longitude": "140.29573600"
    },
    {
        "id": 323,
        "prefecture_id": 5,
        "name": "藤里町",
        "code": "5346",
        "created_at": null,
        "updated_at": null,
        "latitude": "40.27839900",
        "longitude": "140.26187900"
    },
    {
        "id": 324,
        "prefecture_id": 5,
        "name": "三種町",
        "code": "5348",
        "created_at": null,
        "updated_at": null,
        "latitude": "40.10161500",
        "longitude": "140.00498100"
    },
    {
        "id": 325,
        "prefecture_id": 5,
        "name": "八峰町",
        "code": "5349",
        "created_at": null,
        "updated_at": null,
        "latitude": "40.31871500",
        "longitude": "140.03861800"
    },
    {
        "id": 326,
        "prefecture_id": 5,
        "name": "五城目町",
        "code": "5361",
        "created_at": null,
        "updated_at": null,
        "latitude": "39.94389500",
        "longitude": "140.11130900"
    },
    {
        "id": 327,
        "prefecture_id": 5,
        "name": "八郎潟町",
        "code": "5363",
        "created_at": null,
        "updated_at": null,
        "latitude": "39.94902300",
        "longitude": "140.07335800"
    },
    {
        "id": 328,
        "prefecture_id": 5,
        "name": "井川町",
        "code": "5366",
        "created_at": null,
        "updated_at": null,
        "latitude": "39.91418800",
        "longitude": "140.08126500"
    },
    {
        "id": 329,
        "prefecture_id": 5,
        "name": "大潟村",
        "code": "5368",
        "created_at": null,
        "updated_at": null,
        "latitude": "40.01778800",
        "longitude": "139.96006400"
    },
    {
        "id": 330,
        "prefecture_id": 5,
        "name": "美郷町",
        "code": "5434",
        "created_at": null,
        "updated_at": null,
        "latitude": "39.46163300",
        "longitude": "140.58212700"
    },
    {
        "id": 331,
        "prefecture_id": 5,
        "name": "羽後町",
        "code": "5463",
        "created_at": null,
        "updated_at": null,
        "latitude": "39.19932300",
        "longitude": "140.41288100"
    },
    {
        "id": 332,
        "prefecture_id": 5,
        "name": "東成瀬村",
        "code": "5464",
        "created_at": null,
        "updated_at": null,
        "latitude": "39.17918500",
        "longitude": "140.64889200"
    },
    {
        "id": 333,
        "prefecture_id": 6,
        "name": "山形県",
        "code": "6000",
        "created_at": null,
        "updated_at": null,
        "latitude": "38.24055000",
        "longitude": "140.36335800"
    },
    {
        "id": 334,
        "prefecture_id": 6,
        "name": "山形市",
        "code": "6201",
        "created_at": null,
        "updated_at": null,
        "latitude": "38.25543600",
        "longitude": "140.33960500"
    },
    {
        "id": 335,
        "prefecture_id": 6,
        "name": "米沢市",
        "code": "6202",
        "created_at": null,
        "updated_at": null,
        "latitude": "37.92186900",
        "longitude": "140.11614000"
    },
    {
        "id": 336,
        "prefecture_id": 6,
        "name": "鶴岡市",
        "code": "6203",
        "created_at": null,
        "updated_at": null,
        "latitude": "38.72718300",
        "longitude": "139.82672500"
    },
    {
        "id": 337,
        "prefecture_id": 6,
        "name": "酒田市",
        "code": "6204",
        "created_at": null,
        "updated_at": null,
        "latitude": "38.91438600",
        "longitude": "139.83651300"
    },
    {
        "id": 338,
        "prefecture_id": 6,
        "name": "新庄市",
        "code": "6205",
        "created_at": null,
        "updated_at": null,
        "latitude": "38.76496000",
        "longitude": "140.30166400"
    },
    {
        "id": 339,
        "prefecture_id": 6,
        "name": "寒河江市",
        "code": "6206",
        "created_at": null,
        "updated_at": null,
        "latitude": "38.38095400",
        "longitude": "140.27606800"
    },
    {
        "id": 340,
        "prefecture_id": 6,
        "name": "上山市",
        "code": "6207",
        "created_at": null,
        "updated_at": null,
        "latitude": "38.14956200",
        "longitude": "140.26783000"
    },
    {
        "id": 341,
        "prefecture_id": 6,
        "name": "村山市",
        "code": "6208",
        "created_at": null,
        "updated_at": null,
        "latitude": "38.48335200",
        "longitude": "140.38038000"
    },
    {
        "id": 342,
        "prefecture_id": 6,
        "name": "長井市",
        "code": "6209",
        "created_at": null,
        "updated_at": null,
        "latitude": "38.10608800",
        "longitude": "140.03394700"
    },
    {
        "id": 343,
        "prefecture_id": 6,
        "name": "天童市",
        "code": "6210",
        "created_at": null,
        "updated_at": null,
        "latitude": "38.36217700",
        "longitude": "140.37780200"
    },
    {
        "id": 344,
        "prefecture_id": 6,
        "name": "東根市",
        "code": "6211",
        "created_at": null,
        "updated_at": null,
        "latitude": "38.43129200",
        "longitude": "140.39102100"
    },
    {
        "id": 345,
        "prefecture_id": 6,
        "name": "尾花沢市",
        "code": "6212",
        "created_at": null,
        "updated_at": null,
        "latitude": "38.60062000",
        "longitude": "140.40569300"
    },
    {
        "id": 346,
        "prefecture_id": 6,
        "name": "南陽市",
        "code": "6213",
        "created_at": null,
        "updated_at": null,
        "latitude": "38.05511600",
        "longitude": "140.14830900"
    },
    {
        "id": 347,
        "prefecture_id": 6,
        "name": "山辺町",
        "code": "6301",
        "created_at": null,
        "updated_at": null,
        "latitude": "38.28921700",
        "longitude": "140.26218000"
    },
    {
        "id": 348,
        "prefecture_id": 6,
        "name": "中山町",
        "code": "6302",
        "created_at": null,
        "updated_at": null,
        "latitude": "38.33312200",
        "longitude": "140.28305100"
    },
    {
        "id": 349,
        "prefecture_id": 6,
        "name": "河北町",
        "code": "6321",
        "created_at": null,
        "updated_at": null,
        "latitude": "38.42663200",
        "longitude": "140.31459000"
    },
    {
        "id": 350,
        "prefecture_id": 6,
        "name": "西川町",
        "code": "6322",
        "created_at": null,
        "updated_at": null,
        "latitude": "38.42648700",
        "longitude": "140.14766100"
    },
    {
        "id": 351,
        "prefecture_id": 6,
        "name": "朝日町",
        "code": "6323",
        "created_at": null,
        "updated_at": null,
        "latitude": "38.29929300",
        "longitude": "140.14592400"
    },
    {
        "id": 352,
        "prefecture_id": 6,
        "name": "大江町",
        "code": "6324",
        "created_at": null,
        "updated_at": null,
        "latitude": "38.38071300",
        "longitude": "140.20679300"
    },
    {
        "id": 353,
        "prefecture_id": 6,
        "name": "大石田町",
        "code": "6341",
        "created_at": null,
        "updated_at": null,
        "latitude": "38.59387700",
        "longitude": "140.37264700"
    },
    {
        "id": 354,
        "prefecture_id": 6,
        "name": "金山町",
        "code": "6361",
        "created_at": null,
        "updated_at": null,
        "latitude": "38.88344000",
        "longitude": "140.33936700"
    },
    {
        "id": 355,
        "prefecture_id": 6,
        "name": "最上町",
        "code": "6362",
        "created_at": null,
        "updated_at": null,
        "latitude": "38.75846700",
        "longitude": "140.51935900"
    },
    {
        "id": 356,
        "prefecture_id": 6,
        "name": "舟形町",
        "code": "6363",
        "created_at": null,
        "updated_at": null,
        "latitude": "38.69141700",
        "longitude": "140.31998800"
    },
    {
        "id": 357,
        "prefecture_id": 6,
        "name": "真室川町",
        "code": "6364",
        "created_at": null,
        "updated_at": null,
        "latitude": "38.85691800",
        "longitude": "140.25156400"
    },
    {
        "id": 358,
        "prefecture_id": 6,
        "name": "大蔵村",
        "code": "6365",
        "created_at": null,
        "updated_at": null,
        "latitude": "38.70412100",
        "longitude": "140.23036800"
    },
    {
        "id": 359,
        "prefecture_id": 6,
        "name": "鮭川村",
        "code": "6366",
        "created_at": null,
        "updated_at": null,
        "latitude": "38.79645500",
        "longitude": "140.22200700"
    },
    {
        "id": 360,
        "prefecture_id": 6,
        "name": "戸沢村",
        "code": "6367",
        "created_at": null,
        "updated_at": null,
        "latitude": "38.73760100",
        "longitude": "140.14356900"
    },
    {
        "id": 361,
        "prefecture_id": 6,
        "name": "高畠町",
        "code": "6381",
        "created_at": null,
        "updated_at": null,
        "latitude": "38.00274500",
        "longitude": "140.18911300"
    },
    {
        "id": 362,
        "prefecture_id": 6,
        "name": "川西町",
        "code": "6382",
        "created_at": null,
        "updated_at": null,
        "latitude": "38.00520300",
        "longitude": "140.05318100"
    },
    {
        "id": 363,
        "prefecture_id": 6,
        "name": "小国町",
        "code": "6401",
        "created_at": null,
        "updated_at": null,
        "latitude": "38.06139100",
        "longitude": "139.74333300"
    },
    {
        "id": 364,
        "prefecture_id": 6,
        "name": "白鷹町",
        "code": "6402",
        "created_at": null,
        "updated_at": null,
        "latitude": "38.18306900",
        "longitude": "140.09857100"
    },
    {
        "id": 365,
        "prefecture_id": 6,
        "name": "飯豊町",
        "code": "6403",
        "created_at": null,
        "updated_at": null,
        "latitude": "38.04571400",
        "longitude": "139.98761700"
    },
    {
        "id": 366,
        "prefecture_id": 6,
        "name": "三川町",
        "code": "6426",
        "created_at": null,
        "updated_at": null,
        "latitude": "38.79452900",
        "longitude": "139.84961200"
    },
    {
        "id": 367,
        "prefecture_id": 6,
        "name": "庄内町",
        "code": "6428",
        "created_at": null,
        "updated_at": null,
        "latitude": "38.84955800",
        "longitude": "139.90403600"
    },
    {
        "id": 368,
        "prefecture_id": 6,
        "name": "遊佐町",
        "code": "6461",
        "created_at": null,
        "updated_at": null,
        "latitude": "39.01483600",
        "longitude": "139.90866200"
    },
    {
        "id": 369,
        "prefecture_id": 7,
        "name": "福島県",
        "code": "7000",
        "created_at": null,
        "updated_at": null,
        "latitude": "37.75001900",
        "longitude": "140.46773700"
    },
    {
        "id": 370,
        "prefecture_id": 7,
        "name": "福島市",
        "code": "7201",
        "created_at": null,
        "updated_at": null,
        "latitude": "37.76083000",
        "longitude": "140.47474700"
    },
    {
        "id": 371,
        "prefecture_id": 7,
        "name": "会津若松市",
        "code": "7202",
        "created_at": null,
        "updated_at": null,
        "latitude": "37.49484200",
        "longitude": "139.92970700"
    },
    {
        "id": 372,
        "prefecture_id": 7,
        "name": "郡山市",
        "code": "7203",
        "created_at": null,
        "updated_at": null,
        "latitude": "37.40045500",
        "longitude": "140.35965000"
    },
    {
        "id": 373,
        "prefecture_id": 7,
        "name": "いわき市",
        "code": "7204",
        "created_at": null,
        "updated_at": null,
        "latitude": "37.05045600",
        "longitude": "140.88768700"
    },
    {
        "id": 374,
        "prefecture_id": 7,
        "name": "白河市",
        "code": "7205",
        "created_at": null,
        "updated_at": null,
        "latitude": "37.12637900",
        "longitude": "140.21092300"
    },
    {
        "id": 375,
        "prefecture_id": 7,
        "name": "須賀川市",
        "code": "7207",
        "created_at": null,
        "updated_at": null,
        "latitude": "37.28650400",
        "longitude": "140.37265500"
    },
    {
        "id": 376,
        "prefecture_id": 7,
        "name": "喜多方市",
        "code": "7208",
        "created_at": null,
        "updated_at": null,
        "latitude": "37.65113400",
        "longitude": "139.87448400"
    },
    {
        "id": 377,
        "prefecture_id": 7,
        "name": "相馬市",
        "code": "7209",
        "created_at": null,
        "updated_at": null,
        "latitude": "37.79735300",
        "longitude": "140.91893700"
    },
    {
        "id": 378,
        "prefecture_id": 7,
        "name": "二本松市",
        "code": "7210",
        "created_at": null,
        "updated_at": null,
        "latitude": "37.58478300",
        "longitude": "140.43119900"
    },
    {
        "id": 379,
        "prefecture_id": 7,
        "name": "田村市",
        "code": "7211",
        "created_at": null,
        "updated_at": null,
        "latitude": "37.44062100",
        "longitude": "140.57631000"
    },
    {
        "id": 380,
        "prefecture_id": 7,
        "name": "南相馬市",
        "code": "7212",
        "created_at": null,
        "updated_at": null,
        "latitude": "37.64219700",
        "longitude": "140.95723700"
    },
    {
        "id": 381,
        "prefecture_id": 7,
        "name": "伊達市",
        "code": "7213",
        "created_at": null,
        "updated_at": null,
        "latitude": "37.81909500",
        "longitude": "140.56289400"
    },
    {
        "id": 382,
        "prefecture_id": 7,
        "name": "本宮市",
        "code": "7214",
        "created_at": null,
        "updated_at": null,
        "latitude": "37.51316200",
        "longitude": "140.39387700"
    },
    {
        "id": 383,
        "prefecture_id": 7,
        "name": "桑折町",
        "code": "7301",
        "created_at": null,
        "updated_at": null,
        "latitude": "37.85465300",
        "longitude": "140.52079700"
    },
    {
        "id": 384,
        "prefecture_id": 7,
        "name": "国見町",
        "code": "7303",
        "created_at": null,
        "updated_at": null,
        "latitude": "37.87681000",
        "longitude": "140.54927300"
    },
    {
        "id": 385,
        "prefecture_id": 7,
        "name": "川俣町",
        "code": "7308",
        "created_at": null,
        "updated_at": null,
        "latitude": "37.66498900",
        "longitude": "140.59824400"
    },
    {
        "id": 386,
        "prefecture_id": 7,
        "name": "大玉村",
        "code": "7322",
        "created_at": null,
        "updated_at": null,
        "latitude": "37.53436200",
        "longitude": "140.37105800"
    },
    {
        "id": 387,
        "prefecture_id": 7,
        "name": "鏡石町",
        "code": "7342",
        "created_at": null,
        "updated_at": null,
        "latitude": "37.25285800",
        "longitude": "140.34340500"
    },
    {
        "id": 388,
        "prefecture_id": 7,
        "name": "天栄村",
        "code": "7344",
        "created_at": null,
        "updated_at": null,
        "latitude": "37.25557600",
        "longitude": "140.24716500"
    },
    {
        "id": 389,
        "prefecture_id": 7,
        "name": "下郷町",
        "code": "7362",
        "created_at": null,
        "updated_at": null,
        "latitude": "37.25557100",
        "longitude": "139.87208400"
    },
    {
        "id": 390,
        "prefecture_id": 7,
        "name": "檜枝岐村",
        "code": "7364",
        "created_at": null,
        "updated_at": null,
        "latitude": "37.02414100",
        "longitude": "139.38894100"
    },
    {
        "id": 391,
        "prefecture_id": 7,
        "name": "只見町",
        "code": "7367",
        "created_at": null,
        "updated_at": null,
        "latitude": "37.34865700",
        "longitude": "139.31578900"
    },
    {
        "id": 392,
        "prefecture_id": 7,
        "name": "南会津町",
        "code": "7368",
        "created_at": null,
        "updated_at": null,
        "latitude": "37.20038900",
        "longitude": "139.77321500"
    },
    {
        "id": 393,
        "prefecture_id": 7,
        "name": "北塩原村",
        "code": "7402",
        "created_at": null,
        "updated_at": null,
        "latitude": "37.65567300",
        "longitude": "139.93738300"
    },
    {
        "id": 394,
        "prefecture_id": 7,
        "name": "西会津町",
        "code": "7405",
        "created_at": null,
        "updated_at": null,
        "latitude": "37.58739600",
        "longitude": "139.64930100"
    },
    {
        "id": 395,
        "prefecture_id": 7,
        "name": "磐梯町",
        "code": "7407",
        "created_at": null,
        "updated_at": null,
        "latitude": "37.56209900",
        "longitude": "139.98876600"
    },
    {
        "id": 396,
        "prefecture_id": 7,
        "name": "猪苗代町",
        "code": "7408",
        "created_at": null,
        "updated_at": null,
        "latitude": "37.55779900",
        "longitude": "140.10479400"
    },
    {
        "id": 397,
        "prefecture_id": 7,
        "name": "会津坂下町",
        "code": "7421",
        "created_at": null,
        "updated_at": null,
        "latitude": "37.56145700",
        "longitude": "139.82173200"
    },
    {
        "id": 398,
        "prefecture_id": 7,
        "name": "湯川村",
        "code": "7422",
        "created_at": null,
        "updated_at": null,
        "latitude": "37.56527200",
        "longitude": "139.88686900"
    },
    {
        "id": 399,
        "prefecture_id": 7,
        "name": "柳津町",
        "code": "7423",
        "created_at": null,
        "updated_at": null,
        "latitude": "37.52603500",
        "longitude": "139.71955200"
    },
    {
        "id": 400,
        "prefecture_id": 7,
        "name": "三島町",
        "code": "7444",
        "created_at": null,
        "updated_at": null,
        "latitude": "37.47029200",
        "longitude": "139.64444100"
    },
    {
        "id": 401,
        "prefecture_id": 7,
        "name": "金山町",
        "code": "7445",
        "created_at": null,
        "updated_at": null,
        "latitude": "37.45373500",
        "longitude": "139.52452400"
    },
    {
        "id": 402,
        "prefecture_id": 7,
        "name": "昭和村",
        "code": "7446",
        "created_at": null,
        "updated_at": null,
        "latitude": "37.33544600",
        "longitude": "139.61066600"
    },
    {
        "id": 403,
        "prefecture_id": 7,
        "name": "会津美里町",
        "code": "7447",
        "created_at": null,
        "updated_at": null,
        "latitude": "37.46516600",
        "longitude": "139.83457100"
    },
    {
        "id": 404,
        "prefecture_id": 7,
        "name": "西郷村",
        "code": "7461",
        "created_at": null,
        "updated_at": null,
        "latitude": "37.14176700",
        "longitude": "140.15529900"
    },
    {
        "id": 405,
        "prefecture_id": 7,
        "name": "泉崎村",
        "code": "7464",
        "created_at": null,
        "updated_at": null,
        "latitude": "37.15378400",
        "longitude": "140.30336300"
    },
    {
        "id": 406,
        "prefecture_id": 7,
        "name": "中島村",
        "code": "7465",
        "created_at": null,
        "updated_at": null,
        "latitude": "37.14875600",
        "longitude": "140.35023000"
    },
    {
        "id": 407,
        "prefecture_id": 7,
        "name": "矢吹町",
        "code": "7466",
        "created_at": null,
        "updated_at": null,
        "latitude": "37.20122100",
        "longitude": "140.33849300"
    },
    {
        "id": 408,
        "prefecture_id": 7,
        "name": "棚倉町",
        "code": "7481",
        "created_at": null,
        "updated_at": null,
        "latitude": "37.02986700",
        "longitude": "140.37959100"
    },
    {
        "id": 409,
        "prefecture_id": 7,
        "name": "矢祭町",
        "code": "7482",
        "created_at": null,
        "updated_at": null,
        "latitude": "36.87133400",
        "longitude": "140.42475500"
    },
    {
        "id": 410,
        "prefecture_id": 7,
        "name": "塙町",
        "code": "7483",
        "created_at": null,
        "updated_at": null,
        "latitude": "36.95687700",
        "longitude": "140.40980500"
    },
    {
        "id": 411,
        "prefecture_id": 7,
        "name": "鮫川村",
        "code": "7484",
        "created_at": null,
        "updated_at": null,
        "latitude": "37.04222900",
        "longitude": "140.50969900"
    },
    {
        "id": 412,
        "prefecture_id": 7,
        "name": "石川町",
        "code": "7501",
        "created_at": null,
        "updated_at": null,
        "latitude": "37.15707200",
        "longitude": "140.44677500"
    },
    {
        "id": 413,
        "prefecture_id": 7,
        "name": "玉川村",
        "code": "7502",
        "created_at": null,
        "updated_at": null,
        "latitude": "37.21071800",
        "longitude": "140.40893900"
    },
    {
        "id": 414,
        "prefecture_id": 7,
        "name": "平田村",
        "code": "7503",
        "created_at": null,
        "updated_at": null,
        "latitude": "37.22199500",
        "longitude": "140.57565500"
    },
    {
        "id": 415,
        "prefecture_id": 7,
        "name": "浅川町",
        "code": "7504",
        "created_at": null,
        "updated_at": null,
        "latitude": "37.08094700",
        "longitude": "140.41285200"
    },
    {
        "id": 416,
        "prefecture_id": 7,
        "name": "古殿町",
        "code": "7505",
        "created_at": null,
        "updated_at": null,
        "latitude": "37.08918200",
        "longitude": "140.55569200"
    },
    {
        "id": 417,
        "prefecture_id": 7,
        "name": "三春町",
        "code": "7521",
        "created_at": null,
        "updated_at": null,
        "latitude": "37.44050000",
        "longitude": "140.49338900"
    },
    {
        "id": 418,
        "prefecture_id": 7,
        "name": "小野町",
        "code": "7522",
        "created_at": null,
        "updated_at": null,
        "latitude": "37.28682300",
        "longitude": "140.62628000"
    },
    {
        "id": 419,
        "prefecture_id": 7,
        "name": "広野町",
        "code": "7541",
        "created_at": null,
        "updated_at": null,
        "latitude": "37.21440300",
        "longitude": "140.99456100"
    },
    {
        "id": 420,
        "prefecture_id": 7,
        "name": "楢葉町",
        "code": "7542",
        "created_at": null,
        "updated_at": null,
        "latitude": "37.28260500",
        "longitude": "140.99346500"
    },
    {
        "id": 421,
        "prefecture_id": 7,
        "name": "富岡町",
        "code": "7543",
        "created_at": null,
        "updated_at": null,
        "latitude": "37.34549600",
        "longitude": "141.00865200"
    },
    {
        "id": 422,
        "prefecture_id": 7,
        "name": "川内村",
        "code": "7544",
        "created_at": null,
        "updated_at": null,
        "latitude": "37.33768000",
        "longitude": "140.80926600"
    },
    {
        "id": 423,
        "prefecture_id": 7,
        "name": "大熊町",
        "code": "7545",
        "created_at": null,
        "updated_at": null,
        "latitude": "37.38208700",
        "longitude": "140.95826400"
    },
    {
        "id": 424,
        "prefecture_id": 7,
        "name": "双葉町",
        "code": "7546",
        "created_at": null,
        "updated_at": null,
        "latitude": "37.45290400",
        "longitude": "141.00637400"
    },
    {
        "id": 425,
        "prefecture_id": 7,
        "name": "浪江町",
        "code": "7547",
        "created_at": null,
        "updated_at": null,
        "latitude": "37.49459400",
        "longitude": "141.00074600"
    },
    {
        "id": 426,
        "prefecture_id": 7,
        "name": "葛尾村",
        "code": "7548",
        "created_at": null,
        "updated_at": null,
        "latitude": "37.50354700",
        "longitude": "140.76451800"
    },